,City,Country,Lat,Lng,Max Temp,Humidity,Cloudiness,Wind Speed,Date
0,Kodiak,US,57.79,-152.4072,35.6,69.0,90.0,26.46, 03/14/2021
2,Susaki,JP,33.3667,133.2833,46.6,73.0,1.0,5.14, 03/14/2021
3,Muros,ES,42.7762,-9.0603,54.0,78.0,18.0,5.01, 03/14/2021
4,Auki,SB,-8.7676,160.7034,76.5,84.0,95.0,4.59, 03/14/2021
5,New Norfolk,AU,-42.7826,147.0587,63.0,65.0,96.0,4.0, 03/14/2021
6,Coahuayana,MX,18.7333,-103.6833,84.2,39.0,1.0,7.9, 03/14/2021
7,Katsuura,JP,35.1333,140.3,48.0,35.0,0.0,4.0, 03/14/2021
8,Miyako,JP,39.6367,141.9525,42.24,80.0,96.0,8.5, 03/14/2021
9,La Ronge,CA,55.1001,-105.2842,50.0,34.0,14.0,13.8, 03/14/2021
